

{
  "name": "London",
  "latitude": "-25.363",
  "longitude": "131.044",
  "zoomLevel": "6",
  "icon": "main.png",
  "categories": [
    {
      "title": "Culture",
      "subcategories": [
        {
          "title": "cafes",
          "icon": "caffe.svg",
          "places": [
            {
              "title": "cafe fego",
              "address": "lorem ipsum",
              "latitude": "-25.363",
              "longitude": "131.044",
              "postcode": "TW184DY"
            },
            {
              "title": "cafe another",
              "address": "lorem ipsum",
              "latitude": "-25.363",
              "longitude": "131.044",
              "postcode": "TW184DY"
            }
          ]
        },
        {
          "title": "restaurants",
          "icon": "restaurant.svg",
          "places": [
            {
              "title": "restaurant1",
              "address": "lorem ipsum",
              "latitude": "-25.363",
              "longitude": "131.044",
              "postcode": "TW184DY"
            },
            {
              "title": "restaurant2",
              "address": "lorem ipsum",
              "latitude": "-25.363",
              "longitude": "131.044",
              "postcode": "TW184DY"
            }
          ]
        },
        {
          "title": "Shopping",
          "icon": "shopping.svg",
          "places": [
            {
              "title": "Shopping mall",
              "address": "lorem ipsum",
              "latitude": "-25.363",
              "longitude": "131.044",
              "postcode": "TW184DY"
            },
            {
              "title": "Shopping boutique",
              "address": "lorem ipsum",
              "latitude": "-25.363",
              "longitude": "131.044",
              "postcode": "TW184DY"
            }
          ]
        }
      ]
    },
    {
      "title": "Education",
      "subcategories": [
        {
          "title": "Primary",
          "icon": "primary.svg",
          "places": [
            {
              "title": "primary school",
              "address": "lorem ipsum",
              "latitude": "-25.363",
              "longitude": "131.044",
              "postcode": "TW184DY"
            }
          ]
        },
        {
          "title": "College",
          "icon": "College.svg",
          "places": [
            {
              "title": "college one",
              "address": "lorem ipsum",
              "latitude": "-25.363",
              "longitude": "131.044",
              "postcode": "TW184DY"
            },
            {
              "title": "college two",
              "address": "lorem ipsum",
              "latitude": "-25.363",
              "longitude": "131.044",
              "postcode": "TW184DY"
            }
          ]
        },
        {
          "title": "University",
          "icon": "University.svg",
          "places": [
            {
              "title": "University one",
              "address": "lorem ipsum",
              "latitude": "-25.363",
              "longitude": "131.044",
              "postcode": "TW184DY"
            },
            {
              "title": "University two",
              "address": "lorem ipsum",
              "latitude": "-25.363",
              "longitude": "131.044",
              "postcode": "TW184DY"
            }
          ]
        }
      ]
    },
    {
      "title": "Transport",
      "subcategories": [
        {
          "title": "Airports",
          "icon": "Airports.svg",
          "places": [
            {
              "title": "luton",
              "address": "lorem ipsum",
              "latitude": "-25.363",
              "longitude": "131.044",
              "postcode": "TW184DY"
            },
            {
              "title": "london city airport",
              "address": "lorem ipsum",
              "latitude": "-25.363",
              "longitude": "131.044",
              "postcode": "TW184DY"
            }
          ]
        },
        {
          "title": "Overground",
          "icon": "Overground.svg",
          "places": [
            {
              "title": "Overground",
              "address": "lorem ipsum",
              "latitude": "-25.363",
              "longitude": "131.044",
              "postcode": "TW184DY"
            },
            {
              "title": "Overground2",
              "address": "lorem ipsum",
              "latitude": "-25.363",
              "longitude": "131.044",
              "postcode": "TW184DY"
            }
          ]
        },
        {
          "title": "Underground",
          "icon": "Underground.svg",
          "places": [
            {
              "title": "Underground1",
              "address": "lorem ipsum",
              "latitude": "-25.363",
              "longitude": "131.044",
              "postcode": "TW184DY"
            },
            {
              "title": "Underground 2",
              "address": "lorem ipsum",
              "latitude": "-25.363",
              "longitude": "131.044",
              "postcode": "TW184DY"
            }
          ]
        }
      ]
    }
  ]
}
